{
  "locations": [
    {
      "id": "jeju_airport",
      "name": "제주국제공항",
      "lng": 126.5632342,
      "lat": 33.2501555,
      "radius": 150,
      "category": "transportation"
    },
    {
      "id": "jeju_city_hall",
      "name": "제주시청",
      "lng": 126.5269753,
      "lat": 33.51454151,
      "radius": 250,
      "category": "government"
    },
    {
      "id": "dongmun_market",
      "name": "동문시장",
      "lng": 126.5255016,
      "lat": 33.5148852,
      "radius": 200,
      "category": "market"
    },
    {
      "id": "black_pork_street",
      "name": "흑돼지거리",
      "lng": 126.5253077,
      "lat": 33.5124502,
      "radius": 90,
      "category": "restaurant"
    },
    {
      "id": "sinsan_park",
      "name": "신산공원",
      "lng": 126.5421594,
      "lat": 33.5059027,
      "radius": 90,
      "category": "park"
    },
    {
      "id": "iho_beach",
      "name": "이호테우해변",
      "lng": 126.4907463,
      "lat": 33.4878663,
      "radius": 260,
      "category": "beach"
    },
    {
      "id": "jungmun_resort",
      "name": "중문관광단지",
      "lng": 126.4109166,
      "lat": 33.24735437,
      "radius": 920,
      "category": "tourist_spot"
    },
    {
      "id": "seongsan_ilchulbong",
      "name": "성산일출봉",
      "lng": 126.9557768,
      "lat": 33.50700224,
      "radius": 2460,
      "category": "tourist_spot"
    },
    {
      "id": "seopjikoji",
      "name": "섭지코지",
      "lng": 126.936424,
      "lat": 33.462147,
      "radius": 1260,
      "category": "tourist_spot"
    },
    {
      "id": "seogwipo_maeil_olle_market",
      "name": "서귀포매일올레시장",
      "lng": 126.5642083,
      "lat": 33.245236,
      "radius": 300,
      "category": "market"
    },
    {
      "id": "hallasan_entrance",
      "name": "한라산 어리목광장",
      "lng": 126.4911479,
      "lat": 33.51897959,
      "radius": 400,
      "category": "nature"
    },
    {
      "id": "hyeopjae_beach",
      "name": "협재해수욕장",
      "lng": 126.2644898,
      "lat": 33.41429915,
      "radius": 800,
      "category": "beach"
    },
    {
      "id": "gosan_orum",
      "name": "고산오름",
      "lng": 126.3673891687,
      "lat": 33.3909038082,
      "radius": 150,
      "category": "nature"
    }
  ]
}
